name,type,rating,lat,lon
Sushi Place,restaurant,4.5,35.6804,139.769
Ramen Shop,restaurant,4.3,35.6812,139.7661
Cafe Tokyo,cafe,4.2,35.6895,139.6917
City Museum,museum,4,35.6586,139.7454
Central Park,park,4.7,40.785091,-73.968285
